"名称","ふりがな","所在地","電話番号","FAX","URL","備考","大分類__","中分類__","小分類__","経度","緯度"
"吉祥寺駅(京王井の頭線)","","東京都武蔵野市吉祥寺南町2-1-31","","","","京王井の頭線","その他","駅","駅","139.58017613","35.70247739"
"武蔵境駅(西武多摩川線)","","東京都武蔵野市境南町2-1-12<br>","","","","西武多摩川線","その他","駅","駅","139.54407089","35.70190772"
"明星学園小学校　中学校","","東京都三鷹市井の頭5-7-7","0422-43-2197","","","","保育・教育施設","私立小・中・高校・大学など","中学校","139.57720681","35.69518447"
"天文台歴史館（国立天文台赤道儀室）","","三鷹市大沢2-21-1<br>","0422-34-3688<br>","","http://www.nao.ac.jp/","","生涯学習・文化施設","文化施設","文化財","139.53672367","35.67428547"
"国立天文台太陽塔望遠鏡（アインシュタイン塔）","","三鷹市大沢2-21-1","0422-34-3688<br><br>","","http://www.nao.ac.jp/","","生涯学習・文化施設","文化施設","文化財","139.53671335","35.67334466"
"国立天文台第一赤道儀室","","三鷹市大沢2-21-1","0422-34-3688","","http://www.nao.ac.jp/","","生涯学習・文化施設","文化施設","文化財","139.53855743","35.67428209"
"けやき橋駐輪場&lt;民営&gt;","","東京都三鷹市上連雀2-21-3","","","","","その他","駐輪場・公共駐車場・自転車保管場所","駐輪場・自転車保管場所","139.55842283","35.70246724"
"中原高架下駐輪場（サイクルアンドバスライド）","","東京都三鷹市中原2-12先","","","http://www.city.mitaka.tokyo.jp/c_service/046/046480.html","","その他","駐輪場・公共駐車場・自転車保管場所","駐輪場・自転車保管場所","139.57029829","35.67084467"
"工房　時","","東京都三鷹市野崎2-6-41","0422-30-5571","0422-30-5572","https://www.mitaka-odekakeguide.jp/institutions/show/547","","福祉・介護施設","障がい者施設","障がい者施設","139.54854398","35.68363021"
"ソレイユ","","東京都三鷹市大沢2-2-18","0422-26-1507","0422-26-1507","","","福祉・介護施設","障がい者施設","障がい者施設","139.53847042","35.68016864"
"三鷹市自転車等保管場所","","東京都三鷹市中原3-3-15","0422-44-0012","","","","その他","駐輪場・公共駐車場・自転車保管場所","駐輪場・自転車保管場所","139.56922806","35.67048331"
"しろがね通り第1駐輪場（定期）","","東京都三鷹市下連雀3-30-2","","","http://www.mitaka.ne.jp/facilities/bicycle_parking/","","その他","駐輪場・公共駐車場・自転車保管場所","駐輪場・自転車保管場所","139.56152676","35.69812959"
"しろがね通り第2駐輪場（一時）","","東京都三鷹市下連雀3-28-9","","","http://www.mitaka.ne.jp/facilities/bicycle_parking/","","その他","駐輪場・公共駐車場・自転車保管場所","駐輪場・自転車保管場所","139.56146667","35.69955361"
"三鷹台第１駐輪場（定期）","","東京都三鷹市井の頭2-1-19","","","http://www.mitaka.ne.jp/facilities/bicycle_parking/","","その他","駐輪場・公共駐車場・自転車保管場所","駐輪場・自転車保管場所","139.58849062","35.69277306"
"三鷹台第２駐輪場（定期）","","東京都三鷹市井の頭2-7-18","","","http://www.mitaka.ne.jp/facilities/bicycle_parking/","","その他","駐輪場・公共駐車場・自転車保管場所","駐輪場・自転車保管場所","139.58780360","35.69161341"
"三鷹台第３駐輪場（定期）","","東京都三鷹市井の頭1-30-17","","","http://www.mitaka.ne.jp/facilities/bicycle_parking/","","その他","駐輪場・公共駐車場・自転車保管場所","駐輪場・自転車保管場所","139.58801773","35.69114289"
"三鷹台第４駐輪場（一時）","","東京都三鷹市井の頭1-29-15","","","http://www.mitaka.ne.jp/facilities/bicycle_parking/","","その他","駐輪場・公共駐車場・自転車保管場所","駐輪場・自転車保管場所","139.58730923","35.69068851"
"三鷹台第５駐輪場（定期）","","東京都三鷹市井の頭1-30-19","","","http://www.mitaka.ne.jp/facilities/bicycle_parking/","","その他","駐輪場・公共駐車場・自転車保管場所","駐輪場・自転車保管場所","139.58829631","35.69172934"
"ぽけっと工房","","東京都三鷹市牟礼1−18−13ハイツ白樺３号棟１階","0422-26-7123","","","","福祉・介護施設","障がい者施設","障がい者施設","139.58524216","35.68488005"
"介護老人保健施設「三鷹ロイヤルの丘」","","東京都三鷹市新川5−6−24","0422‐71‐2012","","","","福祉・介護施設","高齢者施設","介護施設","139.57094756","35.67492103"
"井口小学童保育所A","","東京都三鷹市井口3-7-64","0422-31-0377","0422-31-0377","","","保育・教育施設","学童保育所","学童保育所","139.54376318","35.69169006"
"井口小学童保育所B","","東京都三鷹市井口3-7-64","0422-31-6680","0422-31-6680","","","保育・教育施設","学童保育所","学童保育所","139.54376335","35.69164274"
"まなびの森保育園三鷹","","東京都三鷹市新川6-5-15","0422-76-0708","","","","保育・教育施設","私立保育園","私立保育園","139.56852809","35.68232626"
"ケンパ井の頭","","東京都三鷹市井の頭1-14-5","0422-70-0960","","","","保育・教育施設","私立保育園","私立保育園","139.58980098","35.69065815"
"リトルキッズファースト保育園","","東京都三鷹市井口１-10-19","0422-34-7200","","","","保育・教育施設","私立保育園","私立保育園","139.54989963","35.69010123"
"ポピンズナーサリースクール三鷹南","","東京都三鷹市下連雀4-16-16","0422-70-1620","","","","保育・教育施設","私立保育園","私立保育園","139.56103383","35.69547071"
"三鷹もりのこ保育園","","東京都三鷹市上連雀2-16-1","0422-43-1195","","","","保育・教育施設","私立保育園","私立保育園","139.55680209","35.70214533"
"第一駐車場&lt;民営&gt;","","東京都三鷹市下連雀3-13-10","","","","","その他","駐輪場・公共駐車場・自転車保管場所","公共駐車場","139.56292650","35.69953530"
"ウェルビー三鷹センター","","東京都三鷹市下連雀3−32−3名取屋興産ビル305号室","0422-40-4800","","","","福祉・介護施設","障がい者施設","障がい者施設","139.56096408","35.69892027"
"ウイングみたか","","東京都三鷹市野崎1−7−21ユニパレス三鷹１階","0422-26-7861","0422-26-7862","","","福祉・介護施設","障がい者施設","障がい者施設","139.55519709","35.68356892"
"第二椎の実子供の家","","東京都三鷹市上連雀6-25-31","0422-44-4103","","","","保育・教育施設","私立保育園","私立保育園","139.55692423","35.69223844"
"にじいろ保育園三鷹下連雀","","東京都三鷹市下連雀1-4-22","0422-26-5684","","","","保育・教育施設","私立保育園","私立保育園","139.57052430","35.69152176"
"にじいろ保育園三鷹新川","","東京都三鷹市新川6-33-15","0422-26-7402","","","","保育・教育施設","私立保育園","私立保育園","139.56485769","35.68338420"
"三小学童保育所A","","東京都三鷹市上連雀4-12-33","0422-44-5123","0422-44-5123","","","保育・教育施設","学童保育所","学童保育所","139.55710871","35.69587283"
"三小学童保育所B","","東京都三鷹市上連雀4-12-33","0422-44-5216","0422-44-5216","","","保育・教育施設","学童保育所","学童保育所","139.55714629","35.69586218"
"中原小学童保育所B","","東京都三鷹市中原2-12-13","0422-71-7231","0422-71-7231","","","保育・教育施設","学童保育所","学童保育所","139.57065935","35.66976546"
"高山小学童保育所A","","東京都三鷹市牟礼4-3-16","0422-46-2088","0422-46-2088","","","保育・教育施設","学童保育所","学童保育所","139.57816000","35.69074502"
"高山小学童保育所B","","東京都三鷹市牟礼4-3-16","0422-47-1674","0422-47-1674","","","保育・教育施設","学童保育所","学童保育所","139.57820249","35.69072889"
"五小学童保育所","","東京都三鷹市井の頭2-21-18","0422-47-8572","0422-47-8572","","","保育・教育施設","学童保育所","学童保育所","139.58442233","35.69122375"
"三鷹ひまわり第一共同作業所","","東京都三鷹市下連雀4-8-20","0422-76-0388","0422-76-0387","http://www.m-himawari.net/","","福祉・介護施設","障がい者施設","障がい者施設","139.56267610","35.69266693"
"なかよし教室","","東京都三鷹市井の頭2-21-18","0422-43-8135","0422-67-0271","http://www.geocities.jp/nponakayoshi/","","福祉・介護施設","障がい者施設","障がい者施設","139.58443973","35.69132746"
"野の花","","東京都三鷹市野崎2−6−42","0422-34-2761","","","","福祉・介護施設","障がい者施設","障がい者施設","139.54871485","35.68352711"
"羽沢小学校","","東京都三鷹市大沢4-9-1","0422-32-8431","","","","保育・教育施設","市立小学校・中学校","小学校","139.53830163","35.67026272"
"ＧreenApple","","東京都三鷹市深大寺3−10−39","0422-34-4567","","","","福祉・介護施設","障がい者施設","障がい者施設","139.53782352","35.68925186"
"にじいろ保育園三鷹牟礼","","東京都三鷹市牟礼1-14-27","","","","","保育・教育施設","私立保育園","私立保育園","139.58806187","35.68559630"
"牟礼の森トキ保育園","","東京都三鷹市牟礼4-2-19","","","","","保育・教育施設","私立保育園","私立保育園","139.57862673","35.69060588"
"三鷹赤とんぼ保育園","","三鷹市牟礼3-9-3","","","","","保育・教育施設","私立保育園","私立保育園","139.58075487","35.68825702"
"三鷹南浦西保育園","","東京都三鷹市下連雀7-2-1","","","","社会福祉法人三鷹市社会福祉事業団","保育・教育施設","私立保育園","私立保育園","139.56397369","35.68899581"
"いずみ保育園","","東京都三鷹市大沢3-5-4","","","","","保育・教育施設","私立保育園","私立保育園","139.53359132","35.68167955"
"第二小羊チャイルドセンター","","三鷹市北野3-10-14","","","","","保育・教育施設","私立保育園","私立保育園","139.57992605","35.67992090"
"五小学童保育所Ａ","","東京都三鷹市井の頭2-21-18","0422-47-8572","","","","保育・教育施設","学童保育所","学童保育所","139.58443172","35.69122180"
"五小学童保育所Ｂ","","東京都三鷹市井の頭2-21-18","0422-47-8573","","","","保育・教育施設","学童保育所","学童保育所","139.58443863","35.69122181"
"東台小学童保育所Ａ","","東京都三鷹市中原2-17-37","0422-46-8004","","","","保育・教育施設","学童保育所","学童保育所","139.57211902","35.66743316"
"東台小学童保育所Ｂ","","東京都三鷹市中原2-17-37","0422-46-9220","","","","保育・教育施設","学童保育所","学童保育所","139.57211212","35.66743314"
"連雀学園学童保育所","","東京都三鷹市下連雀7-10-15","0422-42-2127","","","","保育・教育施設","学童保育所","学童保育所","139.56090030","35.68809809"
"高山小学童保育所Ｃ","","東京都三鷹市牟礼3-10-24","未定（３月頃決定）","","","","保育・教育施設","学童保育所","学童保育所","139.57866437","35.69010216"
"教育センター暫定施設","きょういくせんたーざんていしせつ","三鷹市新川六丁目３５番２８号（旧総合保健センター）","0422-45-1151（内線　3251）","0422-43-0320","","","市役所・市政窓口等","市役所・市政窓口","教育センター","139.56386685","35.68233156"
"三鷹市役所","","東京都三鷹市野崎1-1-1","0422-45-1151","","http://www.city.mitaka.tokyo.jp/c_service/001/001618.html","","市役所・市政窓口等","市役所・市政窓口","市役所","139.55991368","35.68334434"
"三鷹駅前市政窓口","","東京都三鷹市下連雀3-24-3-202","0422-42-5678","","http://www.city.mitaka.tokyo.jp/c_service/001/001621.html","","市役所・市政窓口等","市役所・市政窓口","市政窓口","139.56211705","35.70183772"
"三鷹台市政窓口","","東京都三鷹市井の頭2-13-2","0422-42-0511","","http://www.city.mitaka.tokyo.jp/c_service/001/001621.html","","市役所・市政窓口等","市役所・市政窓口","市政窓口","139.58728671","35.69179632"
"三鷹東部市政窓口","","東京都三鷹市中原1-29-35","03-3326-8805","","http://www.city.mitaka.tokyo.jp/c_service/001/001621.html","","市役所・市政窓口等","市役所・市政窓口","市政窓口","139.57598776","35.66725488"
"三鷹西部市政窓口","","東京都三鷹市野崎3-28-11","0422-33-4531","","http://www.city.mitaka.tokyo.jp/c_service/001/001621.html","","市役所・市政窓口等","市役所・市政窓口","市政窓口","139.53898413","35.68390592"
"三鷹市芸術文化センター","","東京都三鷹市上連雀6-12-14","0422-47-9100","0422-47-6700","http://mitaka.jpn.org/geibun/","風のホール(625席)、星のホール(250席)、創作展示室、音楽練習室などをあわせ持つ複合施設","生涯学習・文化施設","文化施設","文化・教養・厚生施設","139.55823714","35.69280643"
"中央保育園","","東京都三鷹市上連雀6-11-16","0422-40-7540","0422-40-7541","","","保育・教育施設","市立保育園","市立保育園","139.55898475","35.69223465"
"南浦東保育園","","東京都三鷹市下連雀6-12-1","0422-40-7166","0422-40-7167","","","保育・教育施設","市立保育園","市立保育園","139.56561193","35.68747153"
"あけぼの保育園","","東京都三鷹市上連雀4-11-21","0422-40-7555","0422-40-7556","","","保育・教育施設","市立保育園","市立保育園","139.55707719","35.69407826"
"三鷹西野保育園","","東京都三鷹市深大寺3-3-10","0422-39-7030","0422-39-7031","","平成27.4より公私連携型保育園（私立）になりました。","保育・教育施設","私立保育園","私立保育園","139.53657402","35.69183596"
"山中保育園","","東京都三鷹市上連雀7-19-1-100","0422-40-7542","0422-40-7543","","","保育・教育施設","市立保育園","市立保育園","139.55212208","35.68986980"
"中原保育園","","東京都三鷹市中原4-35-4-101","0422-40-7170","0422-40-7171","","","保育・教育施設","市立保育園","市立保育園","139.56591844","35.66899932"
"下連雀保育園","","東京都三鷹市下連雀4-19-4","0422-40-7160","0422-40-7161","","","保育・教育施設","市立保育園","市立保育園","139.56029013","35.69626910"
"上連雀保育園","","東京都三鷹市上連雀5-1-27","0422-40-7168","0422-40-7169","","","保育・教育施設","市立保育園","市立保育園","139.55383748","35.69864606"
"野崎保育園","","東京都三鷹市野崎3-12-11","0422-39-7050","0422-39-7051","","","保育・教育施設","市立保育園","市立保育園","139.54337558","35.68592021"
"社会教育会館","","東京都三鷹市下連雀6-13-13","0422-49-2521","0422-43-0334","http://www.city.mitaka.tokyo.jp/c_sections/shakyo/index.html","","生涯学習・文化施設","生涯学習施設","ネットワーク大学","139.56520491","35.68884427"
"東社会教育会館","","東京都三鷹市牟礼2-13-19","0422-46-0408","0422-46-7070","http://www.city.mitaka.tokyo.jp/c_service/001/001683.html","","生涯学習・文化施設","生涯学習施設","ネットワーク大学","139.58468053","35.68434009"
"西社会教育会館","","東京都三鷹市深大寺2-3-5","0422-32-8765","0422-32-8844","http://www.city.mitaka.tokyo.jp/c_service/001/001684.html","","生涯学習・文化施設","生涯学習施設","ネットワーク大学","139.54513272","35.68873144"
"みたか井心亭","","東京都三鷹市下連雀2-10-48","0422-46-3922","0422-46-3922","http://mitaka.jpn.org/seishin/","茶室を中心とした和風文化施設。茶道、華道、歌会などに利用できます。","生涯学習・文化施設","文化施設","文化・教養・厚生施設","139.56694524","35.69669823"
"三鷹市公会堂","","東京都三鷹市野崎1-1-1(市民センター内)","0422-45-1151内線2555","0422-43-6146","http://mitaka.jpn.org/kokaido/","大ホール(719席)のほか、11室の会議室と多目的会議室２室をご利用できます。","生涯学習・文化施設","生涯学習施設","ネットワーク大学","139.55890597","35.68319273"
"大沢コミュニティ・センター","","東京都三鷹市大沢4-25-30","0422-32-6986","0422-32-6924","http://www.city.mitaka.tokyo.jp/c_service/001/001694.html","","生涯学習・文化施設","コミュニティー・センター","コミュニティー・センター","139.53729489","35.66858460"
"牟礼コミュニティ・センター","","東京都三鷹市牟礼7-6-25","0422-49-3441","0422-49-3442","http://www.city.mitaka.tokyo.jp/c_service/001/001695.html","","生涯学習・文化施設","コミュニティー・センター","コミュニティー・センター","139.57476005","35.68490576"
"井口コミュニティ・センター","","東京都三鷹市井口1-13-32","0422-32-7141","0422-32-7142","http://www.city.mitaka.tokyo.jp/c_service/001/001696.html","","生涯学習・文化施設","コミュニティー・センター","コミュニティー・センター","139.54858394","35.69339111"
"井の頭コミュニティ・センター","","東京都三鷹市井の頭2-32-30","0422-44-7321","0422-44-7322","http://www.city.mitaka.tokyo.jp/c_service/001/001697.html","","生涯学習・文化施設","コミュニティー・センター","コミュニティー・センター","139.58348195","35.69402897"
"新川中原コミュニティ・センター","","東京都三鷹市新川1-11-1","0422-49-6568","0422-49-6569","http://www.city.mitaka.tokyo.jp/c_service/001/001698.html","","生涯学習・文化施設","コミュニティー・センター","コミュニティー・センター","139.57590560","35.66888760"
"連雀コミュニティ・センター","","東京都三鷹市下連雀7-15-4","0422-45-5100","0422-76-0055","http://www.mitakacc.jcomoffice.jp/~renjk-cc/","","生涯学習・文化施設","コミュニティー・センター","コミュニティー・センター","139.56092092","35.69251254"
"三鷹駅前コミュニティ・センター","","東京都三鷹市下連雀3-13-10","0422-71-0025","0422-71-0027","http://www.city.mitaka.tokyo.jp/c_service/001/001693.html","","生涯学習・文化施設","コミュニティー・センター","コミュニティー・センター","139.56307636","35.69952051"
"三鷹市山本有三記念館","","東京都三鷹市下連雀2-12-27","0422-42-6233","0422-41-9827","http://mitaka.jpn.org/yuzo/","「路傍の石」や「真実一路」などを書いた作家、山本有三の旧邸である洋風建築。","生涯学習・文化施設","文化施設","文化・教養・厚生施設","139.56770106","35.69956293"
"三鷹図書館（本館）","","東京都三鷹市上連雀8-3-3","0422-43-9151","0422-43-0332","http://www.city.mitaka.tokyo.jp/c_sections/tosho/index.html","","図書館","図書館","図書館","139.55808345","35.68526328"
"東部図書館","","東京都三鷹市牟礼5-8-16","0422-49-3851","0422-46-3488","http://www.city.mitaka.tokyo.jp/c_sections/tosho/index.html","","図書館","図書館","図書館","139.57865181","35.68275611"
"西部図書館","","東京都三鷹市大沢2-6-47","0422-33-1311","0422-33-1356","http://www.city.mitaka.tokyo.jp/c_sections/tosho/index.html","","図書館","図書館","図書館","139.53574652","35.68098016"
"三鷹駅前図書館","","東京都三鷹市下連雀3-13-10","0422-71-0035","0422-71-0034","http://www.city.mitaka.tokyo.jp/c_sections/tosho/index.html","","図書館","図書館","図書館","139.56313506","35.69931483"
"三鷹市美術ギャラリー","","東京都三鷹市下連雀3-35-1（コラル５階）","0422-79-0033","0422-79-0030","http://mitaka.jpn.org/gallery/","南口駅前コラル５階に立地し、企画展開催のほか、市民の皆様の作品発表の場として貸し出し致します。","生涯学習・文化施設","文化施設","美術館","139.56078047","35.70167740"
"市民総合体育館","","東京都三鷹市野崎1-1-1（市民センター内）","0422-45-1151","0422-45-1167","http://www.city.mitaka.tokyo.jp/c_service/001/001656.html","","スポーツ施設","スポーツ施設","スポーツ施設","139.55892239","35.68263620"
"大沢総合グラウンド","","東京都三鷹市大沢5-7-1","0422-45-1151","0422-45-1167","http://www.city.mitaka.tokyo.jp/c_service/001/001658.html","","スポーツ施設","スポーツ施設","スポーツ施設","139.53262044","35.66902691"
"大沢野川グラウンド","","東京都三鷹市大沢5-21-12","0422-45-1151","0422-45-1167","http://www.city.mitaka.tokyo.jp/c_service/001/001667.html","","スポーツ施設","スポーツ施設","スポーツ施設","139.53255637","35.67172062"
"井口特設グラウンド","","東京都三鷹市井口1-6","0422-45-1151","0422-45-1167","http://www.city.mitaka.tokyo.jp/c_service/001/001661.html","","スポーツ施設","スポーツ施設","スポーツ施設","139.54979665","35.69300848"
"新川テニスコート","","東京都三鷹市新川6-23-13","0422-45-1151","0422-45-1167","http://www.city.mitaka.tokyo.jp/c_service/001/001662.html","","スポーツ施設","スポーツ施設","スポーツ施設","139.56646184","35.68048394"
"下連雀ゲートボール場","","東京都三鷹市下連雀9-9-2","0422-45-1151","0422-45-1167","http://www.city.mitaka.tokyo.jp/c_service/001/001663.html","","スポーツ施設","スポーツ施設","スポーツ施設","139.55916044","35.68591183"
"リサイクル市民工房","","東京都三鷹市深大寺2-16-13","0422-34-3196","0422-34-3196","http://www.city.mitaka.tokyo.jp/c_service/000/000628.html","","市役所・市政窓口等","市の施設以外の官公庁等","ごみ処理施設","139.54269460","35.68920542"
"第一小学校","","東京都三鷹市新川6-4-32","0422-43-1177","","","","保育・教育施設","市立小学校・中学校","小学校","139.57018255","35.68212095"
"第二小学校","","東京都三鷹市野崎3-19-1","0422-32-3231","","","","保育・教育施設","市立小学校・中学校","小学校","139.54224409","35.68561971"
"第三小学校","","東京都三鷹市上連雀4-12-3","0422-43-2128","","","","保育・教育施設","市立小学校・中学校","小学校","139.55755008","35.69576208"
"第四小学校","","東京都三鷹市下連雀1-25-1","0422-44-5373","","","","保育・教育施設","市立小学校・中学校","小学校","139.56866714","35.69550341"
"第五小学校","","東京都三鷹市井の頭2-34-21","0422-45-4171","","","","保育・教育施設","市立小学校・中学校","小学校","139.58193313","35.69281207"
"第六小学校","","東京都三鷹市下連雀6-13-1","0422-44-6376","","","","保育・教育施設","市立小学校・中学校","小学校","139.56547370","35.68835413"
"第七小学校","","東京都三鷹市上連雀7-7-7","0422-44-5378","","","","保育・教育施設","市立小学校・中学校","小学校","139.55478163","35.69280344"
"大沢台小学校","","東京都三鷹市大沢2-6-18","0422-32-2175","","","","保育・教育施設","市立小学校・中学校","小学校","139.53636950","35.68015927"
"高山小学校","","東京都三鷹市牟礼4-6-12","0422-45-3275","","","","保育・教育施設","市立小学校・中学校","小学校","139.57716485","35.68977718"
"南浦小学校","","東京都三鷹市下連雀9-9-1","0422-44-6385","","","","保育・教育施設","市立小学校・中学校","小学校","139.55999676","35.68609824"
"中原小学校","","東京都三鷹市中原2-12-13","0422-45-2215","","","","保育・教育施設","市立小学校・中学校","小学校","139.57121314","35.67033161"
"北野小学校","","東京都三鷹市北野3-1-5","0422-47-0551","","","","保育・教育施設","市立小学校・中学校","小学校","139.58212664","35.67960556"
"井口小学校","","東京都三鷹市井口3-7-11","0422-31-5521","","","","保育・教育施設","市立小学校・中学校","小学校","139.54444933","35.69228312"
"東台小学校","","東京都三鷹市中原2-17-37","0422-47-7457","","","","保育・教育施設","市立小学校・中学校","小学校","139.57192807","35.66734682"
"第一中学校","","東京都三鷹市下連雀9-10-1","0422-44-5371","","","","保育・教育施設","市立小学校・中学校","中学校","139.55976893","35.68530432"
"第二中学校","","東京都三鷹市野崎3-14-1","0422-31-6372","","","","保育・教育施設","市立小学校・中学校","中学校","139.54370420","35.68727237"
"第三中学校","","東京都三鷹市牟礼4-13-8","0422-44-6181","","","","保育・教育施設","市立小学校・中学校","中学校","139.57555011","35.69172312"
"第四中学校","","東京都三鷹市上連雀4-18-7","0422-43-9141","","","","保育・教育施設","市立小学校・中学校","中学校","139.55630327","35.69618830"
"第五中学校","","東京都三鷹市新川1-7-20","0422-45-3201","","","","保育・教育施設","市立小学校・中学校","中学校","139.57729240","35.67089941"
"第六中学校","","東京都三鷹市新川2-12-17","0422-49-1833","","","","保育・教育施設","市立小学校・中学校","中学校","139.57579513","35.68089924"
"第七中学校","","東京都三鷹市大沢2-11-12","0422-31-1118","","","","保育・教育施設","市立小学校・中学校","中学校","139.53266392","35.67752447"
"上連雀交通公園","","東京都三鷹市上連雀7-8-13","0422-48-8780","","http://www.city.mitaka.tokyo.jp/c_service/001/001394.html","","環境関連施設","都市公園・広場","都市公園・広場","139.55333183","35.69343813"
"中原スポーツ児童遊園","","東京都三鷹市中原4-34-1","0422-45-1151","0422-45-1167","","","環境関連施設","都市公園・広場","都市公園・広場","139.56642261","35.66877896"
"堀合児童公園","","東京都三鷹市上連雀1-15-11","","","","","環境関連施設","都市公園・広場","都市公園・広場","139.55250212","35.70295474"
"上連雀児童公園","","東京都三鷹市上連雀4-26-6","","","","","環境関連施設","都市公園・広場","都市公園・広場","139.55537550","35.69745953"
"水源の森あけぼのふれあい公園","","東京都三鷹市上連雀5-16-30","","","","","環境関連施設","都市公園・広場","都市公園・広場","139.55254173","35.69755355"
"連雀中央公園","","東京都三鷹市上連雀6-14-1","","","","","環境関連施設","都市公園・広場","都市公園・広場","139.55803001","35.69154347"
"上連雀みなみ児童公園","","東京都三鷹市上連雀9-29-24","","","","","環境関連施設","都市公園・広場","都市公園・広場","139.55079892","35.68415191"
"むらさき児童公園","","東京都三鷹市下連雀2-10-22","","","","","環境関連施設","都市公園・広場","都市公園・広場","139.56696202","35.69466126"
"有三記念公園","","東京都三鷹市下連雀2-12-27","","","","","環境関連施設","都市公園・広場","都市公園・広場","139.56768458","35.69925976"
"下連雀児童公園","","東京都三鷹市下連雀3-6-18","","","","","環境関連施設","都市公園・広場","都市公園・広場","139.56426638","35.69893620"
"下連雀しらかば児童公園","","東京都三鷹市下連雀4-6-11","","","","","環境関連施設","都市公園・広場","都市公園・広場","139.56391512","35.69313041"
"下連雀きたうら児童公園","","東京都三鷹市下連雀4-19-9","","","","","環境関連施設","都市公園・広場","都市公園・広場","139.56038594","35.69563487"
"下連雀みなみうら児童公園","","東京都三鷹市下連雀6-6-55","","","","","環境関連施設","都市公園・広場","都市公園・広場","139.56731390","35.68940656"
"下連雀けやき広場","","東京都三鷹市下連雀7-5-4","","","","","環境関連施設","都市公園・広場","都市公園・広場","139.56255260","35.68957641"
"下連雀鷹の子児童公園","","東京都三鷹市下連雀9-5-51","","","","","環境関連施設","都市公園・広場","都市公園・広場","139.56114849","35.68555700"
"三鷹台児童公園","","東京都三鷹市井の頭1-3-26","","","","","環境関連施設","都市公園・広場","都市公園・広場","139.59160522","35.68982936"
"三鷹台やすらぎ児童公園","","東京都三鷹市井の頭1-10-2","","","","","環境関連施設","都市公園・広場","都市公園・広場","139.58997969","35.68909120"
"牟礼の里公園","","東京都三鷹市牟礼3-7-7","","","","","環境関連施設","都市公園・広場","都市公園・広場","139.58205297","35.68903319"
"牟礼ひばり野児童公園","","東京都三鷹市牟礼7-3-17","","","","","環境関連施設","都市公園・広場","都市公園・広場","139.57535818","35.68286961"
"新川あおやぎ公園","","東京都三鷹市新川1-11-16","","","","","環境関連施設","都市公園・広場","都市公園・広場","139.57498699","35.66859131"
"新川谷端児童公園","","東京都三鷹市新川2-7-17","","","","","環境関連施設","都市公園・広場","都市公園・広場","139.57552805","35.67595779"
"丸池公園","","東京都三鷹市新川5-1-8","","","","","環境関連施設","都市公園・広場","都市公園・広場","139.57072460","35.67721952"
"仙川公園","","東京都三鷹市新川6-7-1","","","","","環境関連施設","都市公園・広場","都市公園・広場","139.56889855","35.67993657"
"新川児童公園","","東京都三鷹市新川6-26-12","","","","","環境関連施設","都市公園・広場","都市公園・広場","139.56734129","35.68233226"
"中仙川児童公園","","東京都三鷹市中原2-8-14","","","","","環境関連施設","都市公園・広場","都市公園・広場","139.57306023","35.66674716"
"中原児童公園","","東京都三鷹市中原4-8-36","","","","","環境関連施設","都市公園・広場","都市公園・広場","139.56922605","35.66440562"
"中原雑木林公園","","東京都三鷹市中原4-26-14","","","","","環境関連施設","都市公園・広場","都市公園・広場","139.56665565","35.66462773"
"北野中央公園","","東京都三鷹市北野3-6-45","","","","","環境関連施設","都市公園・広場","都市公園・広場","139.58069872","35.67554198"
"北野こりす公園","","東京都三鷹市北野3-9-6","","","","","環境関連施設","都市公園・広場","都市公園・広場","139.58049964","35.67804939"
"北野公園","","東京都三鷹市北野3-12-26","","","","","環境関連施設","都市公園・広場","都市公園・広場","139.57809076","35.67759838"
"野崎かきの木児童公園","","東京都三鷹市野崎3-8-1","","","","","環境関連施設","都市公園・広場","都市公園・広場","139.54316594","35.68244150"
"東野児童公園","","東京都三鷹市深大寺2-6-8","","","","","環境関連施設","都市公園・広場","都市公園・広場","139.54442235","35.68939105"
"深大寺公園","","東京都三鷹市深大寺3-15-1","","","","","環境関連施設","都市公園・広場","都市公園・広場","139.53491713","35.69019920"
"大沢雑木林公園","","東京都三鷹市大沢1-11-18","","","","","環境関連施設","都市公園・広場","都市公園・広場","139.53992829","35.67552279"
"堀合遊歩道","","東京都三鷹市上連雀1","","","","","環境関連施設","都市公園・広場","都市公園・広場","139.55091412","35.70375031"
"下連雀いこいの広場","","東京都三鷹市下連雀8-4-22","","","","","環境関連施設","都市公園・広場","都市公園・広場","139.56720967","35.68555939"
"大沢緑地","","東京都三鷹市大沢2-12-16","","","","","環境関連施設","都市公園・広場","都市公園・広場","139.53200940","35.67951723"
"三鷹駅南口東駐輪場（定期）（一時）","","東京都三鷹市下連雀3-15-3","0422-40-7500","","http://www.mitaka.ne.jp/facilities/bicycle_parking/higasi.html","","その他","駐輪場・公共駐車場・自転車保管場所","駐輪場・自転車保管場所","139.56261122","35.70156136"
"三鷹駅南口西駐輪場（定期）（一時）","","東京都三鷹市下連雀3-44-17エルヴェ三鷹地下1階","0422-79-3955","","http://www.mitaka.ne.jp/facilities/bicycle_parking/nishi.html","","その他","駐輪場・公共駐車場・自転車保管場所","駐輪場・自転車保管場所","139.55967645","35.70199714"
"三鷹市消費者活動センター","","東京都三鷹市下連雀3-22-7","0422-43-7874","0422-45-3300","http://www.city.mitaka.tokyo.jp/c_service/000/000510.html","","市役所・市政窓口等","その他の市の施設","消費者活動センター","139.56204904","35.70067728"
"三鷹産業プラザ","","東京都三鷹市下連雀3-38-4","0422-40-9911","","http://www.mitaka.ne.jp/plaza/","","市役所・市政窓口等","市民活動施設・産業支援施設","三鷹産業プラザ","139.56026493","35.69863043"
"上連雀浄水所","","東京都三鷹市上連雀9-41-4","0570-091-101(ナビダイヤル)又は042-548-5110","042-548-5115","","","環境関連施設","ごみ処理施設・上下水道施設","上下水道施設","139.55075751","35.68684110"
"東部水再生センター","","東京都三鷹市新川1-1-1","03-3309-1447","03-3309-9148","","","環境関連施設","ごみ処理施設・上下水道施設","上下水道施設","139.57848742","35.66791378"
"東児童館","","東京都三鷹市牟礼2-13-19","0422-44-2150","0422-46-7070","http://www.city.mitaka.tokyo.jp/c_service/018/018097.html","","保育・教育施設","子ども・子育て支援施設","児童館・学童保育クラブ","139.58470504","35.68410452"
"西児童館","","東京都三鷹市深大寺2-3-5","0422-31-6039","0422-31-6261","http://www.city.mitaka.tokyo.jp/c_service/001/001103.html","","保育・教育施設","子ども・子育て支援施設","児童館・学童保育クラブ","139.54511562","35.68859176"
"むらさき子どもひろば","","東京都三鷹市下連雀1-25-2","0422-49-5500","0422-49-5400","http://www.city.mitaka.tokyo.jp/c_service/001/001104.html","","保育・教育施設","子ども・子育て支援施設","児童館・学童保育クラブ","139.56818871","35.69496146"
"牟礼老人保健施設「はなかいどう」","","東京都三鷹市牟礼6-12-30","0422-44-7700","","http://www.city.mitaka.tokyo.jp/c_service/000/000934.html","","福祉・介護施設","高齢者施設","介護施設","139.57432617","35.68796241"
"高齢者センター　けやき苑","","東京都三鷹市深大寺2-29-13","0422-34-5440","","http://www.city.mitaka.tokyo.jp/c_service/000/000933.html","","福祉・介護施設","高齢者施設","介護施設","139.54106921","35.68504065"
"高齢者センター　どんぐり山","","東京都三鷹市大沢4-8-8","0422-33-2255","","http://www.city.mitaka.tokyo.jp/c_service/000/000933.html","","福祉・介護施設","高齢者施設","介護施設","139.53983585","35.66925309"
"北野ハピネスセンター","","東京都三鷹市北野1-9-29","0422-48-6331","0422-43-0304","http://www.city.mitaka.tokyo.jp/c_service/004/004117.html","","福祉・介護施設","障がい者施設","障がい者施設","139.58605040","35.67996297"
"みたかボランティアセンター","","東京都三鷹市上連雀8-3-10 (建替中、現在は三鷹市福祉会館２Ｆ)","0422-76-1271","0422-76-1273","http://www.city.mitaka.tokyo.jp/c_service/000/000999.html","","福祉・介護施設","保健・福祉施設","保健・福祉施設","139.55776150","35.68479932"
"教育センター（工事中）","","東京都三鷹市下連雀9-11-7","0422-45-1151","0422-43-0320","http://www.city.mitaka.tokyo.jp/c_sections/kyoiku/index.html","","市役所・市政窓口等","市役所・市政窓口","市政窓口","139.56005593","35.68426214"
"子ども家庭支援センターすくすくひろば","","東京都三鷹市下連雀4-19-6","0422-45-7710","0422-45-7713","http://www.city.mitaka.tokyo.jp/c_service/001/001093.html","","保育・教育施設","子ども・子育て支援施設","その他の支援施設","139.56037453","35.69596803"
"子ども林間研修広場なんじゃもんじゃの森","","東京都三鷹市野崎2-13-5","","","","","保育・教育施設","子ども・子育て支援施設","子ども林間研修広場","139.54822848","35.68548039"
"井の頭東部地区公会堂","","東京都三鷹市井の頭1-3-18","0422-45-1151 内線2517(市役所)","","","","生涯学習・文化施設","地区公会堂","地区公会堂","139.59142093","35.68996194"
"三鷹台地区公会堂","","東京都三鷹市井の頭2-21-18","0422-45-1151 内線2517(市役所)","","","","生涯学習・文化施設","地区公会堂","地区公会堂","139.58452646","35.69141179"
"牟礼東地区公会堂","","東京都三鷹市牟礼1-14-2","0422-45-1151 内線2517(市役所)","","","","生涯学習・文化施設","地区公会堂","地区公会堂","139.58760096","35.68503509"
"牟礼地区公会堂","","東京都三鷹市牟礼3-9-2","0422-45-1151 内線2517(市役所)","","","","生涯学習・文化施設","地区公会堂","地区公会堂","139.58069141","35.68847352"
"高山地区公会堂","","東京都三鷹市牟礼4-13-37","0422-45-1151 内線2517(市役所)","","","","生涯学習・文化施設","地区公会堂","地区公会堂","139.57477665","35.69230373"
"牟礼南地区公会堂","","東京都三鷹市牟礼5-4-11","0422-45-1151 内線2517(市役所)","","","","生涯学習・文化施設","地区公会堂","地区公会堂","139.58207730","35.68324605"
"牟礼西地区公会堂","","東京都三鷹市牟礼6-1-21","0422-45-1151 内線2517(市役所)","","","","生涯学習・文化施設","地区公会堂","地区公会堂","139.57692470","35.68668922"
"新川三丁目地区公会堂","","東京都三鷹市新川3-20-18","0422-45-1151 内線2517(市役所)","","","","生涯学習・文化施設","地区公会堂","地区公会堂","139.56970907","35.67765075"
"新川宿地区公会堂","","東京都三鷹市新川6-5-17","0422-45-1151 内線2517(市役所)","","","","生涯学習・文化施設","地区公会堂","地区公会堂","139.56900214","35.68246408"
"天神前地区公会堂","","東京都三鷹市北野3-11-35","0422-45-1151 内線2517(市役所)","","","","生涯学習・文化施設","地区公会堂","地区公会堂","139.57826195","35.68003741"
"北野地区公会堂","","東京都三鷹市北野4-10-1","0422-45-1151 内線2517(市役所)","","","","生涯学習・文化施設","地区公会堂","地区公会堂","139.58200671","35.67319997"
"中原一丁目地区公会堂","","東京都三鷹市中原1-26-15","0422-45-1151 内線2517(市役所)","","","","生涯学習・文化施設","地区公会堂","地区公会堂","139.57625762","35.66516353"
"中原地区公会堂","","東京都三鷹市中原4-5-13","0422-45-1151 内線2517(市役所)","","","","生涯学習・文化施設","地区公会堂","地区公会堂","139.57025482","35.66554207"
"下連雀むらさき地区公会堂","","東京都三鷹市下連雀2-10-21","0422-45-1151 内線2517(市役所)","","","","生涯学習・文化施設","地区公会堂","地区公会堂","139.56710530","35.69489144"
"三鷹駅前地区公会堂","","東京都三鷹市下連雀3-22-7","0422-45-1151 内線2517(市役所)","","","","生涯学習・文化施設","地区公会堂","地区公会堂","139.56213699","35.70075904"
"下連雀地区公会堂","","東京都三鷹市下連雀4-15-18","0422-45-1151 内線2517(市役所)","","","","生涯学習・文化施設","生涯学習施設","ネットワーク大学","139.56171695","35.69522585"
"下連雀南浦地区公会堂","","東京都三鷹市下連雀7-5-1","0422-45-1151 内線2517(市役所)","","","","生涯学習・文化施設","地区公会堂","地区公会堂","139.56293688","35.68941994"
"下連雀八丁目地区公会堂","","東京都三鷹市下連雀8-2-9","0422-45-1151 内線2517(市役所)","","","","生涯学習・文化施設","地区公会堂","地区公会堂","139.56718884","35.68633320"
"上連雀堀合地区公会堂","","東京都三鷹市上連雀1-15-15","0422-45-1151 内線2517(市役所)","","","","生涯学習・文化施設","地区公会堂","地区公会堂","139.55325516","35.70283287"
"上連雀新道北地区公会堂","","東京都三鷹市上連雀2-12-14","0422-45-1151 内線2517(市役所)","","","","生涯学習・文化施設","地区公会堂","地区公会堂","139.55689498","35.69953264"
"上連雀通北地区公会堂","","東京都三鷹市上連雀5-16-26","0422-45-1151 内線2517(市役所)","","","","生涯学習・文化施設","地区公会堂","地区公会堂","139.55283141","35.69746676"
"上連雀地区公会堂","","東京都三鷹市上連雀7-8-35","0422-45-1151 内線2517(市役所)","","","","生涯学習・文化施設","生涯学習施設","ネットワーク大学","139.55419245","35.69365843"
"山中地区公会堂","","東京都三鷹市上連雀8-21-14","0422-45-1151 内線2517(市役所)","","","","生涯学習・文化施設","地区公会堂","地区公会堂","139.55511873","35.68469426"
"野崎地区公会堂","","東京都三鷹市野崎2-4-29","0422-45-1151 内線2517(市役所)","","","","生涯学習・文化施設","地区公会堂","地区公会堂","139.54916314","35.68445953"
"井口地区公会堂","","東京都三鷹市井口1-9-32","0422-45-1151 内線2517(市役所)","","","","生涯学習・文化施設","地区公会堂","地区公会堂","139.54943406","35.69094731"
"井口西地区公会堂","","東京都三鷹市井口4-7-13","0422-45-1151 内線2517(市役所)","","","","生涯学習・文化施設","地区公会堂","地区公会堂","139.53417094","35.69388297"
"深大寺地区公会堂","","東京都三鷹市深大寺1-15-27","0422-45-1151 内線2517(市役所)","","","","生涯学習・文化施設","地区公会堂","地区公会堂","139.53829785","35.69240295"
"東野地区公会堂","","東京都三鷹市深大寺2-9-8","0422-45-1151 内線2517(市役所)","","","","生涯学習・文化施設","地区公会堂","地区公会堂","139.54461139","35.69042534"
"大沢原地区公会堂","","東京都三鷹市大沢1-12-6","0422-45-1151 内線2517(市役所)","","","","生涯学習・文化施設","地区公会堂","地区公会堂","139.53956234","35.67756265"
"大沢地区公会堂","","東京都三鷹市大沢3-4-3","0422-45-1151 内線2517(市役所)","","","","生涯学習・文化施設","地区公会堂","地区公会堂","139.53530043","35.68160500"
"一小学童保育所A","","東京都三鷹市新川3-21-2","0422-45-3688","0422-45-3688","","","保育・教育施設","学童保育所","学童保育所","139.56910043","35.67754584"
"二小学童保育所A","","東京都三鷹市野崎3-19-1","0422-31-3868","0422-31-3868","","","保育・教育施設","学童保育所","学童保育所","139.54294711","35.68491623"
"二小学童保育所B","","東京都三鷹市野崎3-12-18","0422-32-4140","0422-32-4140","","","保育・教育施設","学童保育所","学童保育所","139.54319298","35.68513577"
"四小学童保育所","","東京都三鷹市下連雀1-25-2","0422-48-9547","0422-49-5400","","","保育・教育施設","学童保育所","学童保育所","139.56818991","35.69498475"
"六小学童保育所A","","東京都三鷹市下連雀6-13-1","0422-47-0230","0422-47-0230","","","保育・教育施設","学童保育所","学童保育所","139.56521018","35.68790789"
"七小学童保育所A","","東京都三鷹市上連雀7-7-7","0422-46-5278","0422-46-5278","","","保育・教育施設","学童保育所","学童保育所","139.55526887","35.69287226"
"大沢台小学童保育所","","東京都三鷹市大沢2-9-3","0422-32-8505","0422-32-8505","","","保育・教育施設","学童保育所","学童保育所","139.53368872","35.68050516"
"南浦小学童保育所A","","東京都三鷹市下連雀9-6-28","0422-47-8566","0422-47-8566","","","保育・教育施設","学童保育所","学童保育所","139.56082579","35.68618095"
"中原小学童保育所A","","東京都三鷹市中原2-12-13","0422-47-8951","0422-47-8951","","","保育・教育施設","学童保育所","学童保育所","139.57058291","35.66978045"
"北野小学童保育所A","","東京都三鷹市北野3-1-5","0422-46-0961","0422-46-0961","","","保育・教育施設","学童保育所","学童保育所","139.58239975","35.67905634"
"東台小学童保育所","","東京都三鷹市中原2-17-37","0422-46-8004","0422-46-8004","","","保育・教育施設","学童保育所","学童保育所","139.57153510","35.66734544"
"羽沢小学童保育所","","東京都三鷹市大沢4-9-1","0422-31-8152","0422-31-8152","","","保育・教育施設","学童保育所","学童保育所","139.53817537","35.66998529"
"南浦小学童保育所B","","東京都三鷹市下連雀9-6-28","0422-49-8731","0422-49-8731","","","保育・教育施設","学童保育所","学童保育所","139.56093618","35.68617485"
"福祉コアかみれん（障がい者自立支援センターゆー・あい）","","東京都三鷹市上連雀4-1-8","0422-43-9047","0422-43-9045","","","福祉・介護施設","障がい者施設","障がい者施設","139.55894101","35.69710027"
"福祉コアかみれん（三鷹ひまわり第二共同作業所）","","東京都三鷹市上連雀4-1-8","0422-48-5240","0422-48-0252","","","福祉・介護施設","障がい者施設","障がい者施設","139.55893821","35.69704807"
"福祉コアかみれん（みたか街かど自立センター）","","東京都三鷹市上連雀4-1-8","0422-48-0648","0422-48-0648","http://m-matikado.hp.infoseek.co.jp/","","福祉・介護施設","障がい者施設","障がい者施設","139.55893591","35.69700598"
"下連雀複合施設（ワークセンターゆめ）","","東京都三鷹市下連雀4-15-18","0422-48-8843","0422-24-6270","","","福祉・介護施設","障がい者施設","障がい者施設","139.56159268","35.69516608"
"新川作業所（ワークセンターいくせい工房）","","東京都三鷹市新川3-10-8 2階","0422-71-5499","0422-71-5499","","","福祉・介護施設","障がい者施設","障がい者施設","139.57176417","35.67829903"
"新川作業所（ワークセンターゆうゆう舎）","","東京都三鷹市新川3-10-8　1階","0422-41-5959","0422-26-9006","","","福祉・介護施設","障がい者施設","障がい者施設","139.57175918","35.67820534"
"ピアえきまえ（ワークセンタータートルステップ）","","東京都三鷹市下連雀3-8-13","0422-41-2180","0422-41-2181","","","福祉・介護施設","障がい者施設","障がい者施設","139.56374643","35.69874961"
"特別養護老人ホーム「弘済園」","","東京都三鷹市下連雀5-2-5","0422-43-3319","","http://www.city.mitaka.tokyo.jp/c_service/000/000934.html","","福祉・介護施設","高齢者施設","高齢者介護施設","139.57133749","35.68627342"
"特別養護老人ホーム「どんぐり山」","","東京都三鷹市大沢4-8-8","0422-33-2255","","http://www.city.mitaka.tokyo.jp/c_service/000/000933.html","","福祉・介護施設","高齢者施設","高齢者介護施設","139.53982235","35.66916340"
"特別養護老人ホーム「恵比寿苑」","","東京都三鷹市牟礼1-9-20","0422-48-5577","","http://www.city.mitaka.tokyo.jp/c_service/000/000934.html","","福祉・介護施設","高齢者施設","高齢者介護施設","139.58963613","35.68400096"
"東台保育園","","東京都三鷹市中原2-17-39","0422-79-7728","0422-79-7714","","","保育・教育施設","市立保育園","市立保育園","139.57212858","35.66778826"
"三鷹駅前保育園","","東京都三鷹市下連雀3-30-12(三鷹中央通りタウンプラザ内）","0422-79-5441","0422-79-5442","","平成27.4より公私連携型保育園（私立）になりました。","保育・教育施設","私立保育園","私立保育園","139.56127760","35.69804009"
"介護老人保健施設「太郎」","","東京都三鷹市下連雀4-2-8","0422-76-6636","","http://www.city.mitaka.tokyo.jp/c_service/000/000934.html","","福祉・介護施設","高齢者施設","介護施設","139.56473936","35.69348293"
"三鷹の森ジブリ美術館（三鷹市立アニメーション美術館）","","東京都三鷹市下連雀1-1-83","0570-055777","","http://www.ghibli-museum.jp/top.html","入場は日時指定の予約制","生涯学習・文化施設","文化施設","美術館","139.57038797","35.69628027"
"女性交流室","","東京都三鷹市下連雀3-30-12（中央通りタウンプラザ4階）","","","http://www.city.mitaka.tokyo.jp/c_service/003/003642.html","","市役所・市政窓口等","市民活動施設・産業支援施設","ネットワーク大学","139.56124947","35.69818851"
"大沢の里水車経営農家","","東京都三鷹市大沢6-10-15","0422-45-1151 内線3316","","http://www.city.mitaka.tokyo.jp/c_service/001/001403.html","","生涯学習・文化施設","文化施設","文化財","139.53028613","35.67737642"
"出山横穴墓群８号墓保存・公開施設","","東京都三鷹市大沢2-18（大沢の里・自然観察路内）","0422-31-2671","","http://www.city.mitaka.tokyo.jp/c_service/001/001402.html","","生涯学習・文化施設","文化施設","文化財","139.53160700","35.67800139"
"中原緑地","","東京都三鷹市中原2-5-28","0422-45-1151内線2835","","","","環境関連施設","都市公園・広場","都市公園・広場","139.57381393","35.66500798"
"井の頭地区公会堂","","東京都三鷹市井の頭5-10-24","0422-45-7340","","","","生涯学習・文化施設","地区公会堂","地区公会堂","139.57640043","35.69694745"
"大沢台保育園","","東京都三鷹市大沢2-2-52","0422-39-3177","0422-39-3178","","","保育・教育施設","市立保育園","市立保育園","139.53705442","35.68075722"
"大沢ふるさとセンター","","東京都三鷹市大沢2-11-8","0422-33-1835","","","","市役所・市政窓口等","市民活動施設・産業支援施設","ネットワーク大学","139.53245909","35.67888451"
"SOHOパイロットオフィス","","東京都三鷹市下連雀3-27-1","0422-70-6280","","http://www.mitaka.ne.jp/business/pilotoffice/gaiyo","","市役所・市政窓口等","市民活動施設・産業支援施設","その他の公益施設","139.56138762","35.70150224"
"三立SOHOセンター","","東京都三鷹市下連雀8-3-1","0422-40-2535","","http://www.mitaka.ne.jp/business/sanritsu/gaiyo","","市役所・市政窓口等","市民活動施設・産業支援施設","その他の公益施設","139.56837658","35.68538544"
"三鷹市市民協働センター","","東京都三鷹市下連雀4-17-23","0422-46-0048","0422-46-0148","http://www.collabo-mitaka.jp/","休館日：火曜日（祝祭日は開館し、直近の平日を休館）、年末年始、受付：午前９時〜午後９時、市民活動を応援している施設です。会議室やミーティングルーム、印刷機などの事務機器があります。詳細は、ホームページをご参照ください。","市役所・市政窓口等","市民活動施設・産業支援施設","ネットワーク大学","139.56088739","35.69331195"
"新川保育園","","東京都三鷹市新川5-7-2","0422-40-7553","0422-40-7554","","","保育・教育施設","市立保育園","市立保育園","139.57014254","35.67551019"
"牟礼保育園","","東京都三鷹市牟礼7-4-52","0422-76-0883","0422-76-3536","","","保育・教育施設","市立保育園","市立保育園","139.57408598","35.68316524"
"一小学童保育所B","","東京都三鷹市新川6-4-16","0422-44-4406","0422-44-4406","","","保育・教育施設","学童保育所","学童保育所","139.56951191","35.68168176"
"グループホーム・ピアいのかしら","","東京都三鷹市井の頭2-13-6","0422-49-6444","0422-49-6444","","","福祉・介護施設","障がい者施設","障がい者施設","139.58685656","35.69146465"
"三鷹新川浄水所","","東京都三鷹市新川2-1-15","0570-091-101(ナビダイヤル)又は042-548-5110","042-548-5115","","","環境関連施設","ごみ処理施設・上下水道施設","上下水道施設","139.57726265","35.67965402"
"三鷹市営大沢住宅","","東京都三鷹市大沢6-6-1","","","http://www.city.mitaka.tokyo.jp/c_service/000/000781.html","","市役所・市政窓口等","その他の市の施設","市営住宅","139.52812729","35.67813188"
"三鷹ちどりこども園","","東京都三鷹市上連雀4-12-26","0422-72-9220","0422-72-9221","","平成27.4より公私連携保育所型認定こども園（私立）保育園になりました。","保育・教育施設","私立保育園","私立保育園","139.55718136","35.69533711"
"ふじみ衛生組合","","東京都調布市深大寺東町7-50-30","042-482-5497","042-482-5491","http://fujimieiseikumiai.jp/","","環境関連施設","ごみ処理施設・上下水道施設","ごみ処理施設","139.55900678","35.68231890"
"特別養護老人ホーム「あさひ苑」","","東京都府中市朝日町3-17-1","042-369-0080","","","","福祉・介護施設","高齢者施設","高齢者介護施設","139.52271055","35.66793918"
"特別養護老人ホーム「ちょうふの里」","","東京都調布市西町290-5","042-441-6650","","","","福祉・介護施設","高齢者施設","高齢者介護施設","139.52332681","35.66768533"
"子ども家庭支援センターのびのびひろば","","東京都三鷹市下連雀3-30-12（三鷹中央通りタウンプラザ内）","0422-40-5925","0422-76-6819","http://www.city.mitaka.tokyo.jp/c_service/001/001094.html","","保育・教育施設","子ども・子育て支援施設","その他の支援施設","139.56134485","35.69803520"
"ファミリー・サポート・センター","","東京都三鷹市下連雀4-19-6","0422-76-6817","0422-45-7702","http://www.city.mitaka.tokyo.jp/c_service/001/001097.html","","保育・教育施設","子ども・子育て支援施設","その他の支援施設","139.56025174","35.69596635"
"国際交流センター（三鷹国際交流協会ＭＩＳＨＯＰ）","","東京都三鷹市下連雀3-30-12（中央通りタウンプラザ4階）","0422-43-7812","0422-43-9966","http://www.mishop.jp/","","市役所・市政窓口等","市民活動施設・産業支援施設","ネットワーク大学","139.56122817","35.69822760"
"校外学習施設・川上郷自然の村","","長野県南佐久郡川上村大字原591番362","0267-97-3206","0267-97-3207","http://www.sizennomura.jp/","","保育・教育施設","校外学習施設","自然の村","138.56938993","35.92641777"
"大沢下原地区公会堂","","東京都三鷹市大沢5-1-18","0422-45-1151 内線2517(市役所)","","","","生涯学習・文化施設","生涯学習施設","ネットワーク大学","139.53621514","35.67204608"
"すずかけ駐輪場（定期）（一時）","","東京都三鷹市下連雀3-16-7","0422-72-8355","","http://www.mitaka.ne.jp/facilities/bicycle_parking/suzukake.html","","その他","駐輪場・公共駐車場・自転車保管場所","駐輪場・自転車保管場所","139.56263638","35.70000804"
"ピアえきまえ（一時保護施設）","","東京都三鷹市下連雀3-8-13-201","0422-43-0048","","","","福祉・介護施設","障がい者施設","障がい者施設","139.56371923","35.69881460"
"さくら通り第２駐輪場（定期・一時）","","東京都三鷹市下連雀3-21-30","","","http://www.mitaka.ne.jp/facilities/bicycle_parking/","","その他","駐輪場・公共駐車場・自転車保管場所","駐輪場・自転車保管場所","139.56161857","35.69992752"
"上連雀二丁目駐輪場（定期）","","東京都三鷹市上連雀2-7-25","","","http://www.mitaka.ne.jp/facilities/bicycle_parking/","","その他","駐輪場・公共駐車場・自転車保管場所","駐輪場・自転車保管場所","139.55811803","35.70082173"
"禅林寺通り第２駐輪場（定期）","","東京都三鷹市下連雀3-37-26","","","http://www.mitaka.ne.jp/facilities/bicycle_parking/","","その他","駐輪場・公共駐車場・自転車保管場所","駐輪場・自転車保管場所","139.55989531","35.70006456"
"禅林寺通り第３駐輪場（定期）","","東京都三鷹市下連雀3-41-4","","","http://www.mitaka.ne.jp/facilities/bicycle_parking/","","その他","駐輪場・公共駐車場・自転車保管場所","駐輪場・自転車保管場所","139.55967669","35.69857252"
"下連雀四丁目駐輪場（無料）","","東京都三鷹市下連雀4-12-37","","","http://www.city.mitaka.tokyo.jp/c_service/030/030082.html","","その他","駐輪場・公共駐車場・自転車保管場所","駐輪場・自転車保管場所","139.56197578","35.69628874"
"電車庫通り駐輪場（無料）","","東京都三鷹市上連雀3-1-6","","","http://www.city.mitaka.tokyo.jp/c_service/030/030082.html","","その他","駐輪場・公共駐車場・自転車保管場所","駐輪場・自転車保管場所","139.55409214","35.70155924"
"さくら通り第１駐輪場（一時）","","東京都三鷹市下連雀3-21-32","","","http://www.mitaka.ne.jp/facilities/bicycle_parking/","","その他","駐輪場・公共駐車場・自転車保管場所","駐輪場・自転車保管場所","139.56159185","35.70042956"
"三鷹産業プラザ駐輪場（一時）","","東京都三鷹市下連雀3-38-4","","","http://www.city.mitaka.tokyo.jp/c_service/030/030082.html","","その他","駐輪場・公共駐車場・自転車保管場所","駐輪場・自転車保管場所","139.56033394","35.69842136"
"井の頭第１駐輪場（一時）","","東京都三鷹市井の頭3-3-12","","","http://www.city.mitaka.tokyo.jp/c_service/000/000764.html","","その他","駐輪場・公共駐車場・自転車保管場所","駐輪場・自転車保管場所","139.58360405","35.69622783"
"井の頭第２駐輪場（定期）","","東京都三鷹市井の頭3-3-17","","","http://www.city.mitaka.tokyo.jp/c_service/000/000764.html","","その他","駐輪場・公共駐車場・自転車保管場所","駐輪場・自転車保管場所","139.58405971","35.69620524"
"つつじヶ丘駐輪場（定期・一時）","","東京都三鷹市中原1-13-9","","","http://www.city.mitaka.tokyo.jp/c_service/000/000762.html","","その他","駐輪場・公共駐車場・自転車保管場所","駐輪場・自転車保管場所","139.57513471","35.66178428"
"新川天神社前駐輪場（サイクルアンドバスライド）","","東京都三鷹市新川2-1先","","","http://www.city.mitaka.tokyo.jp/c_service/046/046480.html","","その他","駐輪場・公共駐車場・自転車保管場所","駐輪場・自転車保管場所","139.57754095","35.68170310"
"天文台下駐輪場（サイクルアンドバスライド）","","東京都三鷹市大沢2-21-3","","","http://www.city.mitaka.tokyo.jp/c_service/046/046480.html","","その他","駐輪場・公共駐車場・自転車保管場所","駐輪場・自転車保管場所","139.53845136","35.67176937"
"三鷹産業プラザ自動車駐車場","","東京都三鷹市下連雀3-38-4","","","http://www.mitaka.ne.jp/facilities/auto_parking/plaza_bic.html","","その他","駐輪場・公共駐車場・自転車保管場所","公共駐車場","139.56033394","35.69842136"
"明泉幼稚園","","東京都三鷹市下連雀3-4-44","0422-43-4814","0422-42-9717","http://meisengakuen.ed.jp/","","保育・教育施設","幼稚園","幼稚園","139.56516995","35.69782625"
"三鷹幼稚園","","東京都三鷹市下連雀4-20-6","0422-43-2904","0422-43-2904","","","保育・教育施設","幼稚園","幼稚園","139.55975029","35.69581923"
"三鷹杉の子幼稚園","","東京都三鷹市下連雀6-15-10","0422-44-6463","0422-41-3793","www.mitakasuginoko.ed.jp","","保育・教育施設","幼稚園","幼稚園","139.56503567","35.69001893"
"三鷹小鳩幼稚園","","東京都三鷹市牟礼4-16-18","0422-48-8903","","","","保育・教育施設","幼稚園","幼稚園","139.57319361","35.69181914"
"三鷹のぞみ幼稚園","","東京都三鷹市牟礼5-8-44","0422-43-2565","","http://www.mitakanozomi.jp/","","保育・教育施設","幼稚園","幼稚園","139.57906791","35.68423115"
"牟礼幼稚園","","東京都三鷹市牟礼6-11-33","0422-43-0806","0422-43-1615","http://homepage2.nifty.com/mure-youchien/","","保育・教育施設","幼稚園","幼稚園","139.57591596","35.68738722"
"三鷹台幼稚園","","東京都三鷹市井の頭2-13-20","0422-43-7417","","http://www004.upp.so-net.ne.jp/mitakadai/index.html","","保育・教育施設","幼稚園","幼稚園","139.58635439","35.69175440"
"明星台幼稚園","","東京都三鷹市井の頭5-24-1","0422-43-7642","","","","保育・教育施設","幼稚園","幼稚園","139.57614855","35.69440793"
"三鷹中原幼稚園","","東京都三鷹市中原4-12-26","0422-45-0669<br>0422-45-0674","0422-45-0675","","","保育・教育施設","幼稚園","幼稚園","139.56921486","35.66649529"
"春清学苑幼稚園","","東京都三鷹市新川4-4-22","0422-44-0031","","","","保育・教育施設","幼稚園","幼稚園","139.57380205","35.66958576"
"フィッシャー幼稚園","","東京都三鷹市新川6-35-4","0422-46-4334","","","","保育・教育施設","幼稚園","幼稚園","139.56391846","35.68263473"
"三鷹若葉幼稚園","","東京都三鷹市上連雀8-8-15","0422-45-2511","","http://www.mitaka-wakaba.ed.jp","","保育・教育施設","幼稚園","幼稚園","139.55708297","35.68707635"
"三鷹みずほ幼稚園","","東京都三鷹市井口1-22-3","0422-31-3508","","","","保育・教育施設","幼稚園","幼稚園","139.54667881","35.69299560"
"三鷹双葉幼稚園","","東京都三鷹市深大寺1-3-7","0422-31-0260","","","","保育・教育施設","幼稚園","幼稚園","139.54209810","35.69305617"
"鶏鳴幼稚園","","東京都三鷹市深大寺1-15-14","0422-31-7457","","http://www1.parkcity.ne.jp/keimei/","","保育・教育施設","幼稚園","幼稚園","139.53812495","35.69275192"
"長久寺学園幼稚園","","東京都三鷹市大沢2-2-14","0422-31-9699","","","","保育・教育施設","幼稚園","幼稚園","139.53842051","35.68065947"
"こじか保育園","","東京都三鷹市新川6-7-8","0422-71-2211","0422-71-2212","","","保育・教育施設","市立保育園","市立保育園","139.56842780","35.67967518"
"あかね保育園","","東京都三鷹市下連雀2-18-12","0422-49-2671","","http://akanehoikuen.com/","","保育・教育施設","私立保育園","私立保育園","139.56491400","35.69259073"
"弘済保育所（おひさま保育園）","","東京都三鷹市下連雀5-2-5","","","","","保育・教育施設","私立保育園","私立保育園","139.57134939","35.68625652"
"井の頭保育園","","東京都三鷹市井の頭3-16-31","0422-43-7916","","","","保育・教育施設","私立保育園","私立保育園","139.58056055","35.69257336"
"みたか小鳥の森保育園","","東京都三鷹市井の頭5-22-8","0422-45-4558","","","","保育・教育施設","私立保育園","私立保育園","139.57444990","35.69424400"
"みたかつくしんぼ保育園","","東京都三鷹市中原1-29-35","03-3308-3507","","","","保育・教育施設","私立保育園","私立保育園","139.57594496","35.66722448"
"椎の実子供の家","","東京都三鷹市大沢4-8-8","0422-32-4103","","","","保育・教育施設","私立保育園","私立保育園","139.53992361","35.66994352"
"都立三鷹高等学校","","東京都三鷹市新川6-21-21","0422-46-3311","","","","保育・教育施設","都立高校","都立高校","139.56682853","35.67973263"
"明星学園小学校　中学校","","東京都三鷹市井の頭5-7-7","0422-43-2197","","","","保育・教育施設","私立小・中・高校・大学など","小学校","139.57680898","35.69518349"
"明星学園高等学校","","東京都三鷹市牟礼4-15-22","0422-48-6221","0422-41-6091","http://www.myojogakuen.ed.jp","","保育・教育施設","私立小・中・高校・大学など","高等学校","139.57370761","35.69324581"
"大成高等学校","","東京都三鷹市上連雀6-7-5","0422-43-3196","","","","保育・教育施設","私立小・中・高校・大学など","高等学校","139.55903913","35.68888610"
"国際基督教大学","","東京都三鷹市大沢3-10-2","0422-33-3040","","","","保育・教育施設","私立小・中・高校・大学など","短期大学・大学","139.52967638","35.68751937"
"ルーテル学院大学","","東京都三鷹市大沢3-10-20","0422-31-4611","0422-33-6405","http://www.luther.ac.jp","総合人間学部（社会福祉学科、臨床心理学科、キリスト教学科）、総合人間学研究科（社会福祉学専攻、臨床心理学専攻）","保育・教育施設","私立小・中・高校・大学など","短期大学・大学","139.53518268","35.68829962"
"東京神学大学","","東京都三鷹市大沢3-10-30","0422-32-4185","","","","保育・教育施設","私立小・中・高校・大学など","短期大学・大学","139.53440476","35.68801204"
"杏林大学三鷹キャンパス","","東京都三鷹市新川6-20-2","0422-47-5511","","http://www.kyorin-u.ac.jp/","医学部、付属病院","保育・教育施設","私立小・中・高校・大学など","短期大学・大学","139.56618519","35.67709631"
"日商簿記三鷹福祉専門学校","","東京都三鷹市下連雀4-19-11","0422-44-6121","","http://www.nissho-gakuen.ac.jp","","保育・教育施設","私立小・中・高校・大学など","専修学校","139.56038966","35.69527211"
"専門学校アジア・アフリカ語学院","","東京都三鷹市新川5-14-16","0422-48-5515","0422-46-5107","http://www.aacf.or.jp","","保育・教育施設","私立小・中・高校・大学など","専修学校","139.56864166","35.67530938"
"杏林大学医学部付属看護専門学校","","東京都三鷹市新川6-17-3","0422-44-1863","","","","保育・教育施設","私立小・中・高校・大学など","専修学校","139.56576320","35.67547738"
"総合教育相談室","","東京都三鷹市下連雀9-11-7（教育センター内）","0422-47-0110","","","","保育・教育施設","子ども・子育て支援施設","各種相談所","139.55985574","35.68435223"
"三鷹ネットワーク大学","","東京都三鷹市下連雀3-24-3(三鷹駅前協同ビル３階)","0422-40-0313","0422-40-0314","https://www.mitaka-univ.org/","","生涯学習・文化施設","生涯学習施設","ネットワーク大学","139.56205496","35.70171943"
"三鷹市遺跡調査会展示室","","東京都三鷹市新川3-7-9","0422-48-9454","","","","生涯学習・文化施設","生涯学習施設","三鷹市遺跡調査会展示室","139.57275265","35.67688261"
"三鷹市消費者相談室","","東京都三鷹市下連雀3-22-7","0422-47-9042","","","","市役所・市政窓口等","その他の市の施設","各種相談所","139.56211669","35.70072295"
"三鷹市シルバー人材センター","","東京都三鷹市新川6-35-16","0422-48-6721","","","","市役所・市政窓口等","市民活動施設・産業支援施設","その他の公益施設","139.56313844","35.68241343"
"三鷹市農業公園","","東京都三鷹市新川6-30-16","0422-48-7482","","","","環境関連施設","都市公園・広場","都市公園・広場","139.56524861","35.68151565"
"三鷹警察署","","東京都三鷹市上連雀8-2-36","0422-49-0110","","http://www.keishicho.metro.tokyo.jp/8/mitaka/index.htm","","市役所・市政窓口等","市の施設以外の官公庁等","警察署","139.55835568","35.68663153"
"三鷹消防署","","東京都三鷹市新川6-28-14","0422-47-0119","0422-48-3452","http://www.tfd.metro.tokyo.jp/hp-mitaka/","","市役所・市政窓口等","市の施設以外の官公庁等","消防署・出張所・消防団詰所","139.56600818","35.68288876"
"三鷹消防署 下連雀出張所","","東京都三鷹市下連雀4-15-28","0422-49-0119","0422-48-0119","http://www.tfd.metro.tokyo.jp/hp-mitaka/","","市役所・市政窓口等","市の施設以外の官公庁等","消防署・出張所・消防団詰所","139.56142038","35.69505956"
"三鷹消防署 大沢出張所","","東京都三鷹市大沢3-9-17","0422-32-0119","0422-33-0119","http://www.tfd.metro.tokyo.jp/hp-mitaka/","","市役所・市政窓口等","市の施設以外の官公庁等","消防署・出張所・消防団詰所","139.53858097","35.68378522"
"三鷹消防署 牟礼出張所","","東京都三鷹市牟礼2-6-17","0422-46-0119","0422-48-0002","http://www.tfd.metro.tokyo.jp/hp-mitaka/","","市役所・市政窓口等","市の施設以外の官公庁等","消防署・出張所・消防団詰所","139.58364526","35.68844630"
"ハローワーク三鷹","","東京都三鷹市下連雀4-15-18","0422-47-8609","","http://www.tokyo-hellowork.jp/mitaka/index.html","中央通りから来所できます。三鷹駅南口徒歩14分","市役所・市政窓口等","市の施設以外の官公庁等","職業安定所","139.56168404","35.69537304"
"三鷹労働基準監督署","","東京都武蔵野市御殿山1-1-3クリスタルパークビル3階","0422-48-1161","0422-46-1214","http://www.roudoukyoku.go.jp","","市役所・市政窓口等","市の施設以外の官公庁等","国および都道府県関連施設","139.57681472","35.70276254"
"警視庁府中運転免許試験場","","東京都府中市多磨町3-1-1","042-362-3591","","","","市役所・市政窓口等","市の施設以外の官公庁等","国および都道府県関連施設","139.51503028","35.68854536"
"国立天文台","","東京都三鷹市大沢2-21-1","0422-34-3600","","http://www.nao.ac.jp/","","市役所・市政窓口等","市の施設以外の官公庁等","その他の公益施設","139.53602543","35.67519201"
"野川公園サービスセンター","","東京都三鷹市大沢6-4-1","0422-31-6457","","http://www.musashinoparks.com","","市役所・市政窓口等","市の施設以外の官公庁等","その他の公益施設","139.52576431","35.68016769"
"井の頭恩賜公園案内所","","東京都武蔵野市御殿山1-18-31","0422-47-6900","","","","市役所・市政窓口等","市の施設以外の官公庁等","その他の公益施設","139.57430767","35.70096132"
"武蔵野年金事務所","","東京都武蔵野市吉祥寺北町4-12-18","0422-56-1411","0422-56-2449","","","市役所・市政窓口等","市の施設以外の官公庁等","その他の公益施設","139.56635302","35.71353522"
"武蔵野公証役場","","東京都武蔵野市吉祥寺本町2-5-11松栄ビル4階","0422-22-6606","","","","市役所・市政窓口等","市の施設以外の官公庁等","国および都道府県関連施設","139.57892712","35.70677741"
"武蔵野税務署","","東京都武蔵野市吉祥寺本町3-27-1","0422-53-1311","","","","市役所・市政窓口等","市の施設以外の官公庁等","税務署","139.56864593","35.70338672"
"立川都税事務所","","東京都立川市錦町4-6-3","042-523-3171","","","","市役所・市政窓口等","市の施設以外の官公庁等","税務署","139.42089314","35.69222623"
"東京法務局府中支局","","東京都府中市新町2-44","042-335-4753","042-335-8700","http://houmukyoku.moj.go.jp/tokyo/frame.html","","市役所・市政窓口等","市の施設以外の官公庁等","法務局","139.49347205","35.68507407"
"東京都庁","","東京都新宿区西新宿2-8-1","03-5321-1111","","","","市役所・市政窓口等","市の施設以外の官公庁等","国および都道府県関連施設","139.69168294","35.68950588"
"法政大学中学高等学校","","東京都三鷹市牟礼4-3-1","0422-79-6230","0422-79-6260","http://www.hosei.ed.jp/","","保育・教育施設","私立小・中・高校・大学など","中学校","139.57822899","35.69146662"
"三鷹市東部地域包括支援センター","","東京都三鷹市下連雀5-2-5（特別養護老人ホーム弘済園1階）","0422-48-8855","","","","福祉・介護施設","高齢者施設","高齢者福祉施設","139.57134939","35.68625652"
"三鷹市連雀地域包括支援センター","","東京都三鷹市下連雀8-3-6（野村病院内）","0422-40-2635","","","","福祉・介護施設","高齢者施設","高齢者福祉施設","139.56811709","35.68499303"
"三鷹市井の頭地域包括支援センター","","東京都三鷹市牟礼6-12-30（介護老人保健施設はなかいどう内）","0422-44-7400","","","","福祉・介護施設","高齢者施設","高齢者福祉施設","139.57440997","35.68780263"
"三鷹市西部地域包括支援センター","","東京都三鷹市深大寺2-29-13（高齢者センターけやき苑内）","0422-34-6536","","","","福祉・介護施設","高齢者施設","高齢者福祉施設","139.54108831","35.68507205"
"三鷹市大沢地域包括支援センター","","東京都三鷹市大沢4-8-8（特別養護老人ホームどんぐり山内）","0422-33-2287","","","","福祉・介護施設","高齢者施設","高齢者福祉施設","139.53983585","35.66925309"
"三鷹市三鷹駅周辺地域包括支援センター","","東京都三鷹市下連雀4-2-8（介護老人保健施設太郎内）","0422-76-4500","","","","福祉・介護施設","高齢者施設","高齢者福祉施設","139.56467756","35.69360692"
"三鷹市社会福祉事業団","","東京都三鷹市牟礼6-12-30","0422-44-5211","","","","福祉・介護施設","高齢者施設","高齢者福祉施設","139.57440997","35.68780263"
"介護老人保健施設「三鷹中央リハケアセンター」","","東京都三鷹市下連雀9-2-7","0422-70-0700","","","","福祉・介護施設","高齢者施設","介護施設","139.56344531","35.68490226"
"下連雀複合施設（障がい者相談支援センターぽっぷ）","","東京都三鷹市下連雀4-15-18","0422-71-0901","0422-26-5141","http://www6.ocn.ne.jp/~poppu/","","福祉・介護施設","障がい者施設","障がい者施設","139.56160857","35.69522865"
"下連雀複合施設（障がい者就労支援センターかけはし）","","東京都三鷹市下連雀4-15-18","0422-27-8864","0422-76-1442","http://kakehashi.gr.jp/","","福祉・介護施設","障がい者施設","障がい者施設","139.56171375","35.69516466"
"三鷹郵便局","","東京都三鷹市野崎1-1-2","","","","","市役所・市政窓口等","市の施設以外の官公庁等","郵便局","139.56047043","35.68342015"
"国際基督教大学内郵便局","","東京都三鷹市大沢3-10-2","","","","","市役所・市政窓口等","市の施設以外の官公庁等","郵便局","139.52942796","35.68600213"
"三鷹井口郵便局","","東京都三鷹市井口1-25-9","","","","","市役所・市政窓口等","市の施設以外の官公庁等","郵便局","139.54604078","35.69518714"
"三鷹井の頭郵便局","","東京都三鷹市井の頭5-3-29","0422-43-8892","0422-44-7991","http://www.jp-network.japanpost.jp/","","市役所・市政窓口等","市の施設以外の官公庁等","郵便局","139.57947598","35.69418075"
"三鷹駅前郵便局","","東京都三鷹市下連雀3-36-8","","","","","市役所・市政窓口等","市の施設以外の官公庁等","郵便局","139.55997924","35.70156479"
"三鷹大沢郵便局","","東京都三鷹市大沢2-2-12","","","","","市役所・市政窓口等","市の施設以外の官公庁等","郵便局","139.53843570","35.68097084"
"三鷹大沢四郵便局","","東京都三鷹市大沢4-16-18","","","","","市役所・市政窓口等","市の施設以外の官公庁等","郵便局","139.54103369","35.66560373"
"三鷹上連雀五郵便局","","東京都三鷹市上連雀5-15-16","","","","","市役所・市政窓口等","市の施設以外の官公庁等","郵便局","139.55184962","35.69933393"
"三鷹上連雀郵便局","","東京都三鷹市上連雀9-42-24","","","","","市役所・市政窓口等","市の施設以外の官公庁等","郵便局","139.55029530","35.68565223"
"三鷹北野郵便局","","東京都三鷹市北野3-6-18","0422-47-9811","0422-47-9821","","","市役所・市政窓口等","市の施設以外の官公庁等","郵便局","139.58173741","35.67376040"
"三鷹下連雀郵便局","","東京都三鷹市下連雀1-11-6","0422-43-8891","","","","市役所・市政窓口等","市の施設以外の官公庁等","郵便局","139.56938197","35.69324568"
"三鷹下連雀四郵便局","","東京都三鷹市下連雀4-18-22","","","","","市役所・市政窓口等","市の施設以外の官公庁等","郵便局","139.55985159","35.69306755"
"三鷹新川一郵便局","","東京都三鷹市新川1-11-15","","","","","市役所・市政窓口等","市の施設以外の官公庁等","郵便局","139.57524188","35.66816946"
"三鷹新川五郵便局","","東京都三鷹市新川5-3-12","","","","","市役所・市政窓口等","市の施設以外の官公庁等","郵便局","139.57123370","35.67635423"
"三鷹新川郵便局","","東京都三鷹市新川6-3-10","","","","","市役所・市政窓口等","市の施設以外の官公庁等","郵便局","139.56846777","35.68290942"
"三鷹深大寺郵便局","","東京都三鷹市深大寺1-14-25","","","","","市役所・市政窓口等","市の施設以外の官公庁等","郵便局","139.53814775","35.69017449"
"三鷹台郵便局","","東京都三鷹市井の頭1-29-14","","","","","市役所・市政窓口等","市の施設以外の官公庁等","郵便局","139.58711388","35.69048387"
"三鷹中原四郵便局","","東京都三鷹市中原4-11-7","0422-43-8875","0422-43-4275","http://www.jp-network.japanpost.jp/","","市役所・市政窓口等","市の施設以外の官公庁等","郵便局","139.56865297","35.66512383"
"三鷹牟礼二郵便局","","東京都三鷹市牟礼2-11-18","","","","","市役所・市政窓口等","市の施設以外の官公庁等","郵便局","139.58117269","35.68782131"
"三鷹商工会","","東京都三鷹市下連雀3-37-15","0422-49-3111","0422-49-3184","http://www.mitaka-s.jp/","","市役所・市政窓口等","市民活動施設・産業支援施設","その他の公益施設","139.56030631","35.69919847"
"太宰治文学サロン","","東京都三鷹市下連雀3-16-14　グランジャルダン三鷹　１階","0422-26-9150","0422-26-9150","","","生涯学習・文化施設","文化施設","文化・教養・厚生施設","139.56238419","35.70009782"
"三鷹駅","","東京都三鷹市下連雀3-46-1","","","","ＪＲ中央線","その他","駅","駅","139.56077423","35.70255950"
"三鷹台駅","","東京都三鷹市井の頭1-32-1","","","","京王 井の頭線","その他","駅","駅","139.58887056","35.69222442"
"井の頭公園駅","","東京都三鷹市井の頭3-35-12","","","","京王井の頭線","その他","駅","駅","139.58283576","35.69747317"
"吉祥寺駅(JR)","","東京都武蔵野市吉祥寺南町1-1-24","","","","ＪＲ中央線","その他","駅","駅","139.58019796","35.70305997"
"武蔵境駅(JR)","","東京都武蔵野市境1-1-2","","","","ＪＲ中央線","その他","駅","駅","139.54467342","35.70200584"
"仙川駅","","東京都調布市仙川町1-43","","","","京王線","その他","駅","駅","139.58455313","35.66218358"
"つつじケ丘駅","","東京都調布市西つつじケ丘3-35-1","","","","京王線","その他","駅","駅","139.57534658","35.65819029"
"みたか都市観光協会","","東京都三鷹市下連雀3-24-3-101","0422-40-5525","0422-40-5526","http://kanko.mitaka.ne.jp/","","市役所・市政窓口等","市役所・市政窓口","市政窓口","139.56213634","35.70202810"
"多摩府中保健所武蔵野三鷹地域センター","","武蔵野市西久保3-1-22","0422-54-2209","","","","保健所等","保健所等","保健所等","139.56264004","35.71080832"
"東京都西部公園緑地事務所","","武蔵野市御殿山1-17-59","0422-47-0111","0422-46-3182","","","市役所・市政窓口等","市の施設以外の官公庁等","その他の公益施設","139.57309394","35.70120618"
"多摩府中保健所","","府中市美好町2-51-1","042-362-2334","042-360-2144","","平成27年3月末まで（予定）、東京都府中合同庁舎建て替え工事のため移転。","保健所等","保健所等","保健所等","139.46726896","35.67799010"
"赤鳥居通り駐輪場（一時）","","東京都三鷹市下連雀3-37-2","","","http://www.mitaka.ne.jp/facilities/bicycle_parking/aka.html","","その他","駐輪場・公共駐車場・自転車保管場所","駐輪場・自転車保管場所","139.56018062","35.70093216"
"北野小学童保育所B","","東京都三鷹市北野3-1-5","0422-46-1510","0422-46-1510","","","保育・教育施設","学童保育所","学童保育所","139.58248859","35.67905840"
"六小学童保育所B","","東京都三鷹市下連雀6-13-1","0422-47-0024","0422-47-0024","","","保育・教育施設","学童保育所","学童保育所","139.56520371","35.68777831"
"アクティビティセンターはばたけ","","東京都三鷹市野崎3-17-9","0422-32-3234","0422-32-3274","http://habatake.jp/index.php","","福祉・介護施設","障がい者施設","障がい者施設","139.54293533","35.68797807"
"むうぷ舎中原","","東京都三鷹市牟礼7-5-14-1F","0422-49-3583","0422-46-9548","https://www.mitaka-odekakeguide.jp/institutions/show/619","","福祉・介護施設","障がい者施設","障がい者施設","139.57319281","35.68228232"
"リビングハウスマム","","東京都三鷹市上連雀2-18-16グリーンサイド1F","0422-41-8758","0422-41-8758","","","福祉・介護施設","障がい者施設","障がい者施設","139.55599415","35.69884025"
"むうぷ舎新川","","東京都三鷹市新川4-9-5","0422-44-7507","0422-44-7540","","","福祉・介護施設","障がい者施設","障がい者施設","139.57070904","35.67207780"
"巣立ち風","","東京都三鷹市野崎2-6-42","0422-34-2761","0422-39-7781","http://sudachikai.eco.to/index.html","","福祉・介護施設","障がい者施設","障がい者施設","139.54872180","35.68364226"
"食茶房むうぷ","","東京都三鷹市新川6-9-23","0422-43-4600","0422-43-4555","","","福祉・介護施設","障がい者施設","障がい者施設","139.56802132","35.67777318"
"三鷹ひまわり第三共同作業所","","東京都三鷹市下連雀3-11-8","0422-72-0231","0422-72-4120","http://m-himawari.net/","","福祉・介護施設","障がい者施設","障がい者施設","139.56298475","35.69750713"
"巣立ち工房","","東京都三鷹市大沢6-3-50","0422-33-5316","0422-33-5316","http://sudachikai.eco.to/index.html","","福祉・介護施設","障がい者施設","障がい者施設","139.52822518","35.68050352"
"東京点字出版所","","東京都三鷹市下連雀3-32-10","0422-48-2221","0422-47-1335","http://www.toten.or.jp/","","福祉・介護施設","障がい者施設","障がい者施設","139.56054087","35.69842839"
"わたしたちのいえ　かごめかごめ","","東京都三鷹市下連雀1-8-22　HYビル1・2階","0422-24-0533","0422-24-0133","https://www.mitaka-odekakeguide.jp/institutions/show/741","","福祉・介護施設","障がい者施設","障がい者施設","139.55598161","35.68335364"
"大沢にじの里・未来工房にじ","","東京都三鷹市大沢1-6-3","0422-39-2411","0422-39-2412","http://www1.parkcity.ne.jp/niji/","","福祉・介護施設","障がい者施設","障がい者施設","139.54147115","35.67071527"
"ワークショップハーモニー","","東京都三鷹市大沢1-1-43","0422-26-8620","0422-30-2021","http://www1.parkcity.ne.jp/niji/","","福祉・介護施設","障がい者施設","障がい者施設","139.54089025","35.67845716"
"星と風のカフェ","","東京都三鷹市下連雀3-8-13　三鷹駅前福祉住宅1階","0422-44-2255","0422-44-2255","","","福祉・介護施設","障がい者施設","障がい者施設","139.56374643","35.69874961"
"牟礼駐在所前駐輪場（サイクルアンドバスライド）","","東京都三鷹市牟礼2-14先","","","http://www.city.mitaka.tokyo.jp/c_service/046/046480.html","","その他","駐輪場・公共駐車場・自転車保管場所","駐輪場・自転車保管場所","139.58081472","35.68777880"
"ネオシティみたか駐車場<民営>","","東京都三鷹市下連雀3-35-1","0422-43-8878","","http://www.city.mitaka.tokyo.jp/c_service/000/000772.html","","その他","駐輪場・公共駐車場・自転車保管場所","公共駐車場","139.56076414","35.70179421"
"さくら通り駐車場<民営>","","東京都三鷹市下連雀3-21","","","http://www.mitaka.ne.jp/facilities/auto_parking/sakura_bic.html","","その他","駐輪場・公共駐車場・自転車保管場所","公共駐車場","139.56191503","35.69964022"
"禅林寺通り第１駐輪場（一時）","","東京都三鷹市下連雀3-43-7","","","http://www.mitaka.ne.jp/facilities/bicycle_parking/","","その他","駐輪場・公共駐車場・自転車保管場所","駐輪場・自転車保管場所","139.55960438","35.70070621"
"三鷹中央防災公園・元気創造プラザ","","東京都三鷹市新川6-37-1","0422-45-1151","","http://www.city.mitaka.tokyo.jp/c_service/032/032538.html","","スポーツ施設","スポーツ施設","スポーツ施設","139.56155966","35.68244661"
"三鷹市星と森と絵本の家","","東京都三鷹市大沢2-21-3(国立天文台内)","0422-39-3401","0422-39-3402","http://www.city.mitaka.tokyo.jp/ehon/","","生涯学習・文化施設","文化施設","文化・教養・厚生施設","139.53878115","35.67693336"
"七小学童保育所B","","三鷹市上連雀7-7-7","0422-76-3506","0422-76-3506","","","保育・教育施設","学童保育所","学童保育所","139.55531825","35.69286493"
"三鷹駅前交番　","","東京都三鷹市下連雀3−46−1","","","","","市役所・市政窓口等","市の施設以外の官公庁等","交番等","139.56119986","35.70247646"
"井の頭公園地域安全センター","","東京都三鷹市井の頭4−1−2","","","","","市役所・市政窓口等","市の施設以外の官公庁等","交番等","139.57716808","35.69887644"
"狐久保交番","","東京都三鷹市下連雀5−9−7","","","","","市役所・市政窓口等","市の施設以外の官公庁等","交番等","139.56945943","35.69113007"
"牟礼駐在所","","東京都三鷹市牟礼3−9−1","","","","","市役所・市政窓口等","市の施設以外の官公庁等","交番等","139.58041032","35.68789987"
"新川交番","","東京都三鷹市新川3−16−25","","","","","市役所・市政窓口等","市の施設以外の官公庁等","交番等","139.57037161","35.68092570"
"中仙川交番","","東京都三鷹市新川1−11−13","","","","","市役所・市政窓口等","市の施設以外の官公庁等","交番等","139.57542981","35.66798856"
"下連雀地域安全センター","","東京都三鷹市下連雀4−20−28","","","","","市役所・市政窓口等","市の施設以外の官公庁等","交番等","139.55924771","35.69669703"
"上連雀交番","","東京都三鷹市上連雀7−27−21","","","","","市役所・市政窓口等","市の施設以外の官公庁等","交番等","139.55172084","35.69456207"
"大沢交番","","東京都三鷹市野崎4−8−29","","","","","市役所・市政窓口等","市の施設以外の官公庁等","交番等","139.53880386","35.68101848"
"野崎交番","","東京都三鷹市野崎2−4−12","","","","","市役所・市政窓口等","市の施設以外の官公庁等","交番等","139.54881802","35.68384789"
"東野交番","","東京都三鷹市深大寺2−10−12","","","","","市役所・市政窓口等","市の施設以外の官公庁等","交番等","139.54377465","35.69051756"
"三鷹台交番","","東京都三鷹市井の頭1−30−14","","","","","市役所・市政窓口等","市の施設以外の官公庁等","交番等","139.58760380","35.69103504"
"井之頭公園駅前交番","","東京都三鷹市井の頭3−31−13","","","","","市役所・市政窓口等","市の施設以外の官公庁等","交番等","139.58195616","35.69769215"
"万助橋駐在所","","東京都三鷹市下連雀1−17−3","","","","","市役所・市政窓口等","市の施設以外の官公庁等","交番等","139.57009781","35.69857592"
"北野駐在所","","東京都三鷹市北野3−13−13","","","","","市役所・市政窓口等","市の施設以外の官公庁等","交番等","139.57958760","35.67546867"
"天文台下駐在所","","東京都三鷹市大沢4−10−24","","","","","市役所・市政窓口等","市の施設以外の官公庁等","交番等","139.53759787","35.66957475"
"中原駐在所","","東京都中原4−35−7","","","","","市役所・市政窓口等","市の施設以外の官公庁等","交番等","139.56534427","35.66927926"
"特別養護老人ホーム「みたか紫水園」","","東京都三鷹市新川5-6-31","0422-40-7201","","","","福祉・介護施設","高齢者施設","高齢者介護施設","139.56920072","35.67609112"
"三鷹市新川中原地域包括支援センター","","東京都三鷹市新川5-6-31（特別養護老人ホームみたか紫水園内）","0422-40-7204","","","","福祉・介護施設","高齢者施設","高齢者福祉施設","139.56933181","35.67611958"
"けやき学級（北野小学校内）","","東京都三鷹市北野3-1-5","0422-47-6852","","","","保育・教育施設","市立小学校・中学校","小学校","139.58225881","35.67981506"
"星有料駐輪場&lt;民営&gt;","","東京都三鷹市下連雀3-23-15","","","","","その他","駐輪場・公共駐車場・自転車保管場所","駐輪場・自転車保管場所","139.56157183","35.70098797"
"星第2有料駐輪場&lt;民営&gt;","","東京都三鷹市下連雀3-27-4","","","","","その他","駐輪場・公共駐車場・自転車保管場所","駐輪場・自転車保管場所","139.56139495","35.70121291"
"三鷹駅南口中央駐輪場（一時）","","東京都三鷹市下連雀3-25-11","","","http://www.mitaka.ne.jp/facilities/bicycle_parking/chuo.html","","その他","駐輪場・公共駐車場・自転車保管場所","駐輪場・自転車保管場所","139.56159305","35.70200752"
"スマート・パーク三鷹駐輪場&lt;民営&gt;","","東京都三鷹市下連雀3-38-16<br>","","","http://www.mitaka.ne.jp/facilities/bicycle_parking/smart.html","","その他","駐輪場・公共駐車場・自転車保管場所","駐輪場・自転車保管場所","139.56004018","35.69905317"
"すきっぷ","","東京都三鷹市牟礼3-8-19","050-1558-1184","","","","福祉・介護施設","障がい者施設","障がい者施設","139.58106521","35.68800698"
"にじアート","","東京都三鷹市新川4-11-13","0422-43-0727","0422-43-5077","","","福祉・介護施設","障がい者施設","障がい者施設","139.57131529","35.67319383"
"井の頭地域福祉支援センター","","東京都三鷹市井の頭2-32-30（井の頭コミュニティ・センター新館内）","0422-24-7335","","","","福祉・介護施設","高齢者施設","高齢者福祉施設","139.58339663","35.69404086"
"Ｅ組（第五中学校内）","","東京都三鷹市新川1-7-20","0422-43-0395","","","","保育・教育施設","市立小学校・中学校","中学校","139.57746374","35.67088956"
"Ｅ組（第七中学校内）","","東京都三鷹市大沢2-11-12","0422-31-1137","","","","保育・教育施設","市立小学校・中学校","中学校","139.53247653","35.67753386"
"花と緑の広場","","東京都三鷹市牟礼1-11-26","","","","","環境関連施設","都市公園・広場","都市公園・広場","139.58817041","35.68302001"
"ＴＡＣＹサイクルパーク三鷹南口&lt;民営&gt;","","東京都三鷹市下連雀3-45","","","","","その他","駐輪場・公共駐車場・自転車保管場所","駐輪場・自転車保管場所","139.56001142","35.70244833"
"三鷹市消防団第一分団詰所","","東京都三鷹市新川5-4-13","","","","","市役所・市政窓口等","市の施設以外の官公庁等","消防署・出張所・消防団詰所","139.57067780","35.67619396"
"三鷹市消防団第二分団詰所","","東京都三鷹市新川2-11-44","","","","","市役所・市政窓口等","市の施設以外の官公庁等","消防署・出張所・消防団詰所","139.57652130","35.68090244"
"三鷹市消防団第三分団詰所","","東京都三鷹市牟礼2-12-19","","","","","市役所・市政窓口等","市の施設以外の官公庁等","消防署・出張所・消防団詰所","139.58266549","35.68662044"
"三鷹市消防団第四分団詰所","","東京都三鷹市井の頭4-7-8","","","","","市役所・市政窓口等","市の施設以外の官公庁等","消防署・出張所・消防団詰所","139.57951444","35.69439550"
"三鷹市消防団第五分団詰所","","東京都三鷹市牟礼6-1-3","","","","","市役所・市政窓口等","市の施設以外の官公庁等","消防署・出張所・消防団詰所","139.57904223","35.68736312"
"三鷹市消防団第六分団詰所","","東京都三鷹市下連雀8-10-1","","","","","市役所・市政窓口等","市の施設以外の官公庁等","消防署・出張所・消防団詰所","139.56397697","35.68614331"
"三鷹市消防団第七分団詰所","","東京都三鷹市上連雀7-27-21","","","","","市役所・市政窓口等","市の施設以外の官公庁等","消防署・出張所・消防団詰所","139.55160860","35.69455618"
"三鷹市消防団第八分団詰所","","東京都三鷹市深大寺1-15-27","","","","","市役所・市政窓口等","市の施設以外の官公庁等","消防署・出張所・消防団詰所","139.53850222","35.69243600"
"三鷹市消防団第九分団詰所","","東京都三鷹市野崎2-20-18","","","","","市役所・市政窓口等","市の施設以外の官公庁等","消防署・出張所・消防団詰所","139.54613605","35.68358341"
"三鷹市消防団第十分団詰所","","東京都三鷹市大沢5-1-2","","","","","市役所・市政窓口等","市の施設以外の官公庁等","消防署・出張所・消防団詰所","139.53840761","35.67166349"
"法政大学中学高等学校","","東京都三鷹市牟礼4-3-1","0422-79-6230","0422-79-6260","http://www.hosei.ed.jp/","","保育・教育施設","私立小・中・高校・大学など","高等学校","139.57834863","35.69147414"
"南部図書館みんなみ","","東京都三鷹市新川５−14−16","0422−76−5571","0422−26−9153","http://www.city.mitaka.tokyo.jp/c_sections/tosho/index.html","","図書館","図書館","図書館","139.56864234","35.67519475"
"特定非営利活動法人花と緑のまち三鷹創造協会","","東京都三鷹市野崎３−１２−１４","0422-31-2671","0422-31-2674","http://hanakyokai.or.jp/","","市役所・市政窓口等","市民活動施設・産業支援施設","その他の公益施設","139.54318784","35.68536172"
"ふじみ学級（第六小学校内）","","東京都三鷹市下連雀6-13-1","0422-44-0913","","","","保育・教育施設","市立小学校・中学校","小学校","139.56558480","35.68825704"
"さくら学級（第七小学校内）","","東京都三鷹市上連雀7-7-7","0422-44-5390","","","","保育・教育施設","市立小学校・中学校","小学校","139.55456263","35.69279220"
"ポプラ学級（第七小学校内）","","東京都三鷹市上連雀7-7-7","0422-44-5777","","","","保育・教育施設","市立小学校・中学校","小学校","139.55482813","35.69281564"
"わかば学級（大沢台小学校内）","","東京都三鷹市大沢2-6-18","0422-32-2107","","","","保育・教育施設","市立小学校・中学校","小学校","139.53638620","35.68033615"
"わか竹1組（高山小学校内）","","東京都三鷹市牟礼4-6-12","0422-45-2120","","","","保育・教育施設","市立小学校・中学校","小学校","139.57767026","35.68964797"
"わか竹2組（高山小学校内）","","東京都三鷹市牟礼4-6-12","0422-45-2120","","","","保育・教育施設","市立小学校・中学校","小学校","139.57765551","35.68960473"
"きこえの教室（南浦小学校内）","","東京都三鷹市下連雀9-9-1","0422-41-0061","","","","保育・教育施設","市立小学校・中学校","小学校","139.55942600","35.68593967"
"ことばの教室（南浦小学校内）","","東京都三鷹市下連雀9-9-1","0422-41-0061","","","","保育・教育施設","市立小学校・中学校","小学校","139.55942863","35.68597798"
"むつみ学級（南浦小学校内）","","東京都三鷹市下連雀9-9-1","0422-43-1401","","","","保育・教育施設","市立小学校・中学校","小学校","139.55947700","35.68596795"
"くすの木学級（東台小学校内）","","東京都三鷹市中原2-17-37","0422-47-7467","","","","保育・教育施設","市立小学校・中学校","小学校","139.57206608","35.66735805"
"Ｉ組（第一中学校内）","","東京都三鷹市下連雀9-10-1","0422-45-0063","","","","保育・教育施設","市立小学校・中学校","中学校","139.55966282","35.68541231"
"相談学級（第二中学校内）","","東京都三鷹市野崎3-14-1","0422-31-6957","","","","保育・教育施設","市立小学校・中学校","中学校","139.54360530","35.68737325"
"E組（第三中学校内）","","東京都三鷹市牟礼4-13-8","0422-44-6183","","","","保育・教育施設","市立小学校・中学校","中学校","139.57564850","35.69196257"
"E組（第四中学校内）","","東京都三鷹市上連雀4-18-7","0422-43-9191","","","","保育・教育施設","市立小学校・中学校","中学校","139.55605470","35.69596302"
"通級学級（第六中学校内）","","東京都三鷹市新川2-12-17","0422-76-0122","","","","保育・教育施設","市立小学校・中学校","中学校","139.57583923","35.68077446"
